id,landmark,lat,lon,station_name
2,15541,41.876393,-87.620328,Buckingham Fountain
3,15544,41.86722595682,-87.6153553902,Shedd Aquarium
4,15545,41.856268,-87.613348,Burnham Harbor
5,13030,41.874053,-87.627716,State St & Harrison St
6,15548,41.885041,-87.612794,Dusable Harbor
7,15534,41.88634906269,-87.6175165471,Field Blvd & South Water St
9,15695,41.82879201994,-87.6806044594,Leavitt St & Archer Ave
11,15496,41.76663823695,-87.5764501141,Jeffery Blvd & 71st St
12,15497,41.7664094567,-87.5656875719,South Shore Dr & 71st St
13,13066,41.932418,-87.652705,Wilton Ave & Diversey Pkwy
14,13163,41.858086,-87.651073,Morgan St & 18th St
15,13164,41.858166,-87.656495,Racine Ave & 18th St
16,13223,41.910337,-87.670072,Paulina Ave & North Ave
17,13246,41.903119,-87.673935,Honore St & Division St
18,15536,41.883132,-87.637321,Wacker Dr & Washington St
19,13139,41.869417,-87.660996,Loomis St & Taylor St (*)
20,13154,41.910522,-87.653106,Sheffield Ave & Kingsbury St
21,13157,41.87772613,-87.65478743,Aberdeen St & Jackson Blvd
22,13160,41.8694821,-87.6554864,May St & Taylor St
23,13172,41.902924,-87.637715,Orleans St & Elm St (*)
24,13262,41.89186,-87.62062,Fairbanks Ct & Grand Ave
25,13034,41.89766,-87.62351,Michigan Ave & Pearson St
26,13051,41.890359,-87.617532,McClurg Ct & Illinois St
27,13174,41.91021,-87.6435,Larrabee St & North Ave
28,13282,41.91468,-87.64332,Larrabee St & Menomonee St
29,13290,41.90068,-87.6626,Noble St & Milwaukee Ave
30,13248,41.899643,-87.6677,Ashland Ave & Augusta Blvd
31,13017,41.896776,-87.635633,Franklin St & Chicago Ave
32,13076,41.87464,-87.65703,Racine Ave & Congress Pkwy
33,13003,41.877181,-87.627844,State St & Van Buren St
34,13124,41.9267559875,-87.6344287848,Cannon Dr & Fullerton Ave
35,13022,41.892278,-87.612043,Streeter Dr & Grand Ave
36,13019,41.8777079559,-87.6353211408,Franklin St & Jackson Blvd
37,13020,41.8793563587,-87.6297910363,Dearborn St & Adams St
38,15547,41.88602082773,-87.6308760584,Clark St & Lake St
39,15538,41.87947235235,-87.6256886059,Wabash Ave & Adams St
40,15537,41.87934437346,-87.6319852213,LaSalle St & Adams St
41,15543,41.87207763285,-87.6295437729,Federal St & Polk St
42,13170,41.852619,-87.626488,Wabash Ave & Cermak Rd
43,13001,41.8838927658,-87.6246491409,Michigan Ave & Washington St
44,13002,41.8847302006,-87.6277335692,State St & Randolph St
45,13040,41.876243,-87.624426,Michigan Ave & Congress Pkwy
46,13046,41.89993001,-87.63443007,Wells St & Walton St
47,13050,41.889187,-87.627754,State St & Kinzie St
48,13012,41.897764,-87.642884,Larrabee St & Kingsbury St
49,13049,41.881319815,-87.6295209193,Dearborn St & Monroe St
50,13009,41.8759326655,-87.6305845355,Clark St & Congress Pkwy
51,13005,41.884576228,-87.63188991,Clark St & Randolph St
52,13043,41.886024,-87.624117,Michigan Ave & Lake St
53,13064,41.894882,-87.632326,LaSalle (Wells) St & Huron St
54,13044,41.896362458,-87.6540612729,Ogden Ave & Chicago Ave
55,13166,41.867324,-87.648625,Halsted St & Roosevelt Rd
56,13039,41.888716036,-87.6444478533,Desplaines St & Kinzie St
57,13327,41.8671177825,-87.6410879593,Clinton St & Roosevelt Rd
58,13025,41.916017,-87.668879,Marshfield Ave & Cortland St
59,13031,41.867227,-87.625961,Wabash Ave & Roosevelt Rd
60,13058,41.9105780349,-87.6494219288,Dayton St & North Ave
61,13221,41.907655,-87.672552,Wood St & Milwaukee Ave
62,13106,41.8513751729,-87.6188346489,McCormick Place
66,13021,41.885637,-87.641823,Clinton St & Lake St
67,13060,41.9256018819,-87.6537080423,Sheffield Ave & Fullerton Ave
68,13037,41.875885,-87.640795,Clinton St & Tilden St
69,13065,41.9093960065,-87.6776919292,Damen Ave & Pierce Ave
71,13072,41.8854833079,-87.6523048564,Morgan St & Lake St
72,13148,41.860384,-87.625813,Wabash Ave & 16th St
73,13038,41.880422,-87.642746,Jefferson St & Monroe St
74,13265,41.893882,-87.641711,Kingsbury St & Erie St
75,13138,41.877245,-87.639366,Canal St & Jackson Blvd
76,13300,41.880958,-87.616743,Lake Shore Dr & Monroe St
77,13301,41.882242,-87.641066,Clinton St & Madison St
80,13156,41.880419,-87.655519,Aberdeen St & Monroe St
81,13023,41.884241,-87.629634,Daley Center Plaza
84,13033,41.891578,-87.648384,Milwaukee Ave & Grand Ave
85,13042,41.90096039,-87.62377664,Michigan Ave & Oak St
86,13289,41.89637337,-87.66098386,Eckhart Park
87,13189,41.92556258,-87.65840426,Racine Ave & Fullerton Ave
88,13155,41.884069,-87.656853,Racine Ave & Randolph St
89,15540,41.87500913494,-87.6331058189,Financial Pl & Congress Pkwy
90,13008,41.8810317,-87.62408432,Millennium Park
91,13010,41.88338,-87.64117,Clinton St & Washington Blvd
92,13196,41.894556,-87.653449,Carpenter St & Huron St
93,13190,41.913688,-87.652855,Sheffield Ave & Willow St
94,13146,41.918306,-87.636282,Clark St & Armitage Ave
95,15490,41.77870057128,-87.5867876179,Stony Island Ave & 64th St
96,15535,41.88461618962,-87.6445705849,Desplaines St & Randolph St
97,13029,41.865312,-87.617867,Field Museum
98,13006,41.882664,-87.63253,LaSalle St & Washington St
99,13337,41.89257,-87.614492,Lake Shore Dr & Ohio St
100,13013,41.888243,-87.63639,Orleans St & Merchandise Mart Plaza
101,15491,41.78101637196,-87.5761197602,63rd St Beach
102,15492,41.77345849948,-87.5853397391,Stony Island Ave & 67th St
103,15542,41.87146651779,-87.6409491327,Clinton St & Polk St (*)
106,13014,41.897448,-87.628722,State St & Pearson St
107,15539,41.878287,-87.643909,Desplaines St & Jackson Blvd
108,13027,41.87184,-87.64664,Halsted St & Polk St
109,13028,41.874754,-87.649807,900 W Harrison St
110,13045,41.893992,-87.629318,Dearborn St & Erie St
111,13052,41.894666,-87.638437,Sedgwick St & Huron St
112,13053,41.883668,-87.64867,Green St & Randolph St
113,13059,41.91844,-87.65222,Bissell St & Armitage Ave
114,13062,41.949399,-87.654529,Sheffield Ave & Waveland Ave
115,13067,41.936266,-87.652662,Sheffield Ave & Wellington Ave
116,13068,41.91552,-87.687022,Western Ave & Winnebago Ave
117,13069,41.94018,-87.65304,Wilton Ave & Belmont Ave
118,13070,41.911386,-87.638677,Sedgwick St & North Ave
119,13073,41.88541,-87.66732,Ashland Ave & Lake St
120,13075,41.853605,-87.631886,Wentworth Ave & Archer Ave
121,13398,41.802562,-87.590368,Blackstone Ave & Hyde Park Blvd
122,13081,41.87501,-87.67328,Ogden Ave & Congress Pkwy
123,13084,41.922695,-87.697153,California Ave & Milwaukee Ave
124,13089,41.855048,-87.675726,Damen Ave & Cullerton St
125,15533,41.890173,-87.626185,Rush St & Hubbard St
126,13128,41.911974,-87.631942,Clark St & North Ave
127,13131,41.925905,-87.64926,Lincoln Ave & Fullerton Ave
128,13132,41.895769,-87.67722,Damen Ave & Chicago Ave
129,13135,41.857556,-87.661535,Blue Island Ave & 18th St
130,13136,41.903266,-87.678435,Damen Ave & Division St
131,13140,41.939365,-87.668385,Lincoln Ave & Belmont Ave
132,13149,41.849237,-87.631715,Wentworth Ave & 24th St
133,15532,41.88917683258,-87.6385057718,Kingsbury St & Kinzie St
134,13158,41.877749,-87.649633,Peoria St & Jackson Blvd
135,13162,41.85378,-87.64665,Halsted St & 21st St
136,13165,41.865054,-87.656959,Racine Ave & 13th St
137,13169,41.862378,-87.651062,Morgan Ave & 14th Pl
138,13171,41.904613,-87.640552,Clybourn Ave & Division St
140,13173,41.898969,-87.629912,Dearborn Pkwy & Delaware Pl
141,13179,41.915689,-87.6346,Clark St & Lincoln Ave
142,15531,41.894503,-87.617854,McClurg Ct & Erie St
143,13191,41.922167,-87.638888,Sedgwick St & Webster Ave
144,13193,41.921822,-87.64414,Larrabee St & Webster Ave
145,15529,41.8985866514,-87.6219152258,Mies van der Rohe Way & Chestnut St
146,13206,41.877945,-87.662007,Loomis St & Jackson Blvd
147,13212,41.845687,-87.622481,Indiana Ave & 26th St
148,13216,41.834734,-87.625813,State St & 33rd St
149,13217,41.8349,-87.61793,Calumet Ave & 33rd St
150,13220,41.838556,-87.608218,Fort Dearborn Dr & 31st St
152,13226,41.932225,-87.658617,Lincoln Ave & Diversey Pkwy
153,13228,41.935733,-87.663576,Southport Ave & Wellington Ave
154,13229,41.93949,-87.66378,Southport Ave & Belmont Ave
156,13232,41.9364968219,-87.6475386582,Clark St & Wellington Ave
157,13234,41.936669,-87.636794,Lake Shore Dr & Wellington Ave
158,13243,41.912616,-87.681391,Milwaukee Ave & Wabansia Ave
159,13245,41.907781,-87.685854,Claremont Ave & Hirsch St
160,13257,41.910535,-87.689556,Campbell Ave & North Ave
161,15530,41.89576474564,-87.6259080327,Rush St & Superior St
162,13268,41.93588,-87.67842,Damen Ave & Wellington Ave
163,13271,41.931931,-87.677856,Damen Ave & Clybourn Ave
164,13272,41.885837,-87.6355,Franklin St & Lake St
165,13275,41.95078,-87.659172,Clark St & Grace St
166,13296,41.92883,-87.668507,Ashland Ave & Wrightwood Ave
167,13306,41.8492,-87.67564,Damen Ave & Coulter St
168,13310,41.864059,-87.623727,Michigan Ave & 14th St
169,13326,41.874255,-87.639573,Canal St & Harrison St
170,13329,41.85795,-87.640826,Clinton St & 18th St
171,13331,41.855136,-87.654127,May St & Cullerton St
172,15525,41.90230870122,-87.627690528,Rush St & Cedar St
173,13338,41.89691,-87.621743,Mies van der Rohe Way & Chicago Ave
174,13341,41.882091,-87.639833,Canal St & Madison St
175,13344,41.872596,-87.633502,Wells St & Polk St
176,13349,41.902973,-87.63128,Clark St & Elm St
177,13350 ,41.926277,-87.630834,Theater on the Lake
178,13408,41.856594,-87.627542,State St & 19th St
179,13420,41.82256,-87.61615,MLK Jr Dr & Oakwood Blvd
180,15523,41.906866,-87.626217,Ritchie Ct & Banks St
181,13430,41.890762,-87.631697,LaSalle St & Illinois St
182,15522,41.903222,-87.634324,Wells St & Elm St
183,13142,41.899113,-87.677212,Damen Ave & Augusta Blvd
184,13082,41.83104,-87.62688,State St & 35th St
185,13266,41.917741,-87.691392,Stave St & Armitage Ave
186,13194,41.891795,-87.658751,Ogden Ave & Race Ave
188,13295,41.92533,-87.6658,Greenview Ave & Fullerton Ave
190,13298,41.928773,-87.663913,Southport Ave & Wrightwood Ave
191,13056,41.880884,-87.639525,Canal St & Monroe St (*)
192,13011,41.879255,-87.639904,Canal St & Adams St
193,13213,41.841707,-87.626938,State St & 29th St
194,13339,41.886875,-87.62603,Wabash Ave & Wacker Pl
195,13263,41.884728,-87.619521,Columbus Dr & Randolph St
196,13427,41.890573,-87.622072,Cityfront Plaza Dr & Pioneer Ct
197,13036,41.882134,-87.625125,Michigan Ave & Madison St
198,13159,41.881892,-87.648789,Green St & Madison St
199,13004,41.891466,-87.626761,Wabash Ave & Grand Ave
200,13090,41.809851,-87.616279,MLK Jr Dr & 47th St
201,13083,41.82168,-87.6216,Indiana Ave & 40th St
202,13099,41.857499,-87.646277,Halsted St & 18th St
203,13091,41.854109,-87.685838,Western Ave & 21st St
204,13101,41.794853,-87.618691,Prairie Ave & Garfield Blvd
205,13088,41.857901,-87.668745,Paulina St & 18th St
206,13098,41.847203,-87.646795,Halsted St & Archer Ave
207,13399,41.84358,-87.645368,Emerald Ave & 28th St
208,13307,41.85381,-87.665897,Ashland Ave & 21st St
209,13308,41.849527,-87.640591,Normal Ave & Archer Ave
210,13061,41.90345,-87.667747,Ashland Ave & Division St
211,13016,41.894448,-87.622663,St. Clair St & Erie St
212,13264,41.892154,-87.636928,Orleans St & Ohio St
213,13244,41.910153,-87.68229,Leavitt St & North Ave
214,13141,41.89122,-87.67686,Damen Ave & Grand Ave
215,13134,41.88137,-87.67493,Damen Ave & Madison St
216,13256,41.903029,-87.697474,California Ave & Division St
217,13197,41.886926,-87.656919,Racine Ave (May St) & Fulton St
218,13180,41.856802,-87.633879,Wells St & 19th St
219,13133,41.916027,-87.677411,Damen Ave & Cortland St
220,13123,41.93262,-87.642385,Hampden Ct & Diversey Pkwy
222,13242,41.920195,-87.693033,Milwaukee Ave & Rockwell St
223,13185,41.918216,-87.656936,Clifton Ave & Armitage Ave
224,13181,41.913778,-87.64884,Halsted St & Willow St
225,13192,41.919936,-87.64883,Halsted St & Dickens Ave
226,13230,41.939743,-87.658865,Racine Ave & Belmont Ave
227,13235,41.94815,-87.66394,Southport Ave & Waveland Ave
228,13143,41.9406,-87.6785,Damen Ave & Melrose Ave
229,13071,41.943739,-87.66402,Southport Ave & Roscoe St
230,13078,41.94334,-87.67097,Lincoln Ave & Roscoe St
231,13130,41.96167,-87.65464,Sheridan Rd & Montrose Ave
232,13273,41.949275,-87.646303,Pine Grove Ave & Waveland Ave
233,13409,41.883004,-87.651148,Sangamon St & Washington Blvd (*)
234,13316,41.961588,-87.666036,Clark St & Montrose Ave
236,13410,41.905664,-87.638517,Sedgwick St & Schiller St
237,13214,41.842052,-87.617,MLK Jr Dr & 29th St
238,13092,41.961615,-87.674365,Ravenswood Ave & Montrose Ave (*)
239,13112,41.966555,-87.688487,Western Ave & Leland Ave
240,13063,41.954245,-87.654406,Sheridan Rd & Irving Park Rd
241,13168,41.871737,-87.65103,Morgan St & Polk St
242,13093,41.967094,-87.679028,Damen Ave & Leland Ave
243,13126,41.962391,-87.684146,Lincoln Ave & Leavitt St
244,13087,41.95469,-87.67393,Ravenswood Ave & Irving Park Rd
245,13389,41.961004,-87.649603,Clarendon Ave & Junior Ter
246,13249,41.956061,-87.668869,Ashland Ave & Belle Plaine Ave
247,13361,41.795212,-87.580715,Shore Dr & 55th St
248,13362,41.795264,-87.596471,Woodlawn Ave & 55th St
249,13388,41.963982,-87.638181,Montrose Harbor
250,13269,41.936083,-87.669807,Ashland Ave & Wellington Ave
251,13385,41.967968,-87.650001,Clarendon Ave & Leland Ave
252,13396,41.809835,-87.599383,Greenwood Ave & 47th St
253,13104,41.968812,-87.657659,Clifton Ave & Lawrence Ave
254,13324,41.954383,-87.648043,Pine Grove Ave & Irving Park Rd
255,13309,41.867888,-87.623041,Indiana Ave & Roosevelt Rd
256,13323,41.952833,-87.649993,Broadway & Sheridan Rd
257,13253,41.948797,-87.675278,Lincoln Ave & Waveland Ave
258,13145,41.930584,-87.685126,Logan Blvd & Elston Ave
259,13259,41.918121,-87.696972,California Ave & Francis Pl
260,13085,41.929567,-87.707857,Kedzie Ave & Milwaukee Ave
261,13080,41.871514,-87.669886,Hermitage Ave & Polk St
262,13414,41.827059,-87.64572,Halsted St & 37th St
263,13215,41.836208,-87.613533,Rhodes Ave & 32nd St
264,13048,41.886835,-87.62232,Stetson Ave & South Water St
265,13346,41.822985,-87.6071,Cottage Grove Ave & Oakwood Blvd
267,13117,41.809443,-87.591875,Lake Park Ave & 47th St
268,13328,41.911722,-87.626804,Lake Shore Dr & North Blvd
270,15498,41.7586696704,-87.586882871,Stony Island Ave & 75th St
271,13086,41.816499,-87.606582,Cottage Grove Ave & 43rd St
272,13219,41.838842,-87.621857,Indiana Ave & 31st St
273,13150,41.857813,-87.62455,Michigan Ave & 18th St
274,13304,41.861267,-87.656625,Racine Ave & 15th St
275,13354,41.865234,-87.666507,Ashland Ave & 13th St
276,13258,41.91044,-87.6972,California Ave & North Ave
277,13434,41.891072,-87.666611,Ashland Ave & Grand Ave
278,13417,41.830629,-87.64129,Wallace St & 35th St
279,13413,41.830661,-87.647172,Halsted St & 35th St (*)
280,13097,41.8378,-87.65114,Morgan St & 31st St
281,13393,41.84847,-87.685109,Western Ave & 24th St
282,13161,41.864883,-87.647071,Halsted St & Maxwell St
283,13032,41.87817,-87.631985,LaSalle St & Jackson Blvd
284,13340,41.87785,-87.62408,Michigan Ave & Jackson Blvd
285,13432,41.889587,-87.671956,Wood St & Hubbard St
286,13007,41.878724,-87.634793,Franklin St & Quincy St
287,13057,41.880317,-87.635185,Franklin St & Monroe St
288,13184,41.918084,-87.643749,Larrabee St & Armitage Ave
289,13182,41.912133,-87.634656,Wells St & Concord Ln
290,13292,41.921525,-87.707322,Kedzie Ave & Palmer Ct
291,13302,41.906724,-87.63483,Wells St & Evergreen Ave
292,13317,41.957081,-87.664199,Southport Ave & Clark St
293,13074,41.965221,-87.658139,Broadway & Wilson Ave
294,13109,41.978353,-87.659753,Broadway & Berwyn Ave
295,13108,41.973815,-87.65966,Broadway & Argyle St
296,13277,41.940106,-87.645451,Broadway & Belmont Ave
297,13250,41.961507,-87.671387,Paulina St & Montrose Ave
298,13252,41.955927,-87.679259,Lincoln Ave & Belle Plaine Ave
299,13127,41.94367,-87.64895,Halsted St & Roscoe St
300,13137,41.937725,-87.644095,Broadway & Barry Ave
301,13200,41.907993,-87.631501,Clark St & Schiller St
302,13211,41.928712,-87.653833,Sheffield Ave & Wrightwood Ave
303,13278,41.945529,-87.646439,Broadway & Cornelia Ave
304,13325,41.949074,-87.648636,Broadway & Waveland Ave
305,13241,41.902893,-87.687275,Western Ave & Division St
306,13374,41.958494,-87.654966,Sheridan Rd & Buena Ave
307,13186,41.920771,-87.663712,Southport Ave & Clybourn Ave
308,13144,41.943403,-87.679618,Seeley Ave & Roscoe St
309,13286,41.917805,-87.682437,Leavitt St & Armitage Ave
310,13288,41.920082,-87.677855,Damen Ave & Charleston St
311,13237,41.968885,-87.684001,Leavitt St & Lawrence Ave
312,13379,41.957879,-87.649519,Clarendon Ave & Gordon Ter
313,13147,41.925858,-87.638973,Lakeview Ave & Fullerton Pkwy
314,13251,41.957921,-87.673567,Ravenswood Ave & Berteau Ave
315,13255,41.912919,-87.664169,Elston Ave & Wabansia Ave
316,13315,41.96325,-87.679258,Damen Ave & Sunnyside Ave
317,13285,41.869154,-87.671045,Wood St & Taylor St
318,13321,41.954177,-87.664358,Southport Ave & Irving Park Rd
319,13294,41.932595,-87.665939,Greenview Ave & Diversey Pkwy
320,13332,41.872187,-87.661501,Loomis St & Lexington St
321,13054,41.870769,-87.625734,Wabash Ave & 9th St
322,13397,41.799568,-87.594747,Kimbark Ave & 53rd St
323,13384,41.969517,-87.654691,Sheridan Rd & Lawrence Ave
324,13276,41.93132,-87.638742,Stockton Dr & Wrightwood Ave
325,13392,41.973345,-87.667682,Clark St & Winnemac Ave
326,13239,41.967096,-87.667429,Clark St & Leland Ave
327,13188,41.92154,-87.653818,Sheffield Ave & Webster Ave
328,13365,41.788746,-87.601334,Ellis Ave & 58th St
329,13347,41.932684,-87.63625,Lake Shore Dr & Diversey Pkwy
330,13077,41.946176,-87.673308,Lincoln Ave & Addison St
331,13176,41.908537,-87.648627,Halsted St & Blackhawk St (*)
332,13208,41.933666,-87.648959,Halsted St & Diversey Pkwy
333,13224,41.907066,-87.667252,Ashland Ave & Blackhawk St
334,13233,41.940775,-87.639192,Lake Shore Dr & Belmont Ave
335,13345,41.831379,-87.618034,Calumet Ave & 35th St
336,13422,41.809855,-87.606755,Cottage Grove Ave & 47th St
337,13303,41.896544,-87.630931,Clark St & Chicago Ave
338,13102,41.857611,-87.619407,Calumet Ave & 18th St
339,13404,41.838198,-87.645143,Emerald Ave & 31st St
340,13209,41.929546,-87.643118,Clark St & Wrightwood Ave
341,13431,41.866095,-87.607267,Adler Planetarium
342,13284,41.871262,-87.673688,Wolcott Ave & Polk St
343,13297,41.928887,-87.658971,Racine Ave & Wrightwood Ave
344,13026,41.96909,-87.674237,Ravenswood Ave & Lawrence Ave
345,13119,41.793242,-87.587782,Lake Park Ave & 56th St
346,13353,41.88283,-87.661206,Ada St & Washington Blvd
347,13319,41.950687,-87.6687,Ashland Ave & Grace St
348,13096,41.854016,-87.695445,California Ave & 21st St
349,13210,41.929143,-87.649077,Halsted St & Wrightwood Ave
350,13247,41.895966,-87.667747,Ashland Ave & Chicago Ave
351,13440,41.803038,-87.606615,Cottage Grove Ave & 51st St
352,15493,41.77351755125,-87.5771428255,Jeffery Blvd & 67th St
353,15561,42.01256011541,-87.6743671152,Clark St & Touhy Ave
354,15562,42.01058656284,-87.6624120948,Sheridan Rd & Greenleaf Ave
355,15494,41.773643,-87.567514,South Shore Dr & 67th St
356,15495,41.7664929373,-87.5864608775,Stony Island Ave & 71st St
359,15524,41.90348607004,-87.6433534936,Larrabee St & Division St
364,15527,41.90021949323,-87.6429854676,Larrabee St & Oak St
365,15528,41.89936843921,-87.6484798752,Halsted St & North Branch St
366,15441,41.84163253965,-87.6574349533,Loomis St & Archer Ave
367,15446,41.83069611252,-87.6559759116,Racine Ave & 35th St
368,15442,41.83920868403,-87.6656098589,Ashland Ave & Archer Ave
369,15694,41.83010465416,-87.6702983089,Wood St & 35th St
370,15546,41.85418424947,-87.6191537415,Calumet Ave & 21st St
373,15661,41.89546530305,-87.7061278837,Kedzie Ave & Chicago Ave
374,15662,41.89841768945,-87.6865960164,Western Ave & Walton St
375,15663,41.889727,-87.70103,Sacramento Blvd & Franklin Blvd
376,15664,41.88949181977,-87.6882193648,Artesian Ave & Hubbard St
377,15665,41.88460328501,-87.7063037436,Kedzie Ave & Lake St
378,15666,41.88445395657,-87.6962981368,California Ave & Lake St
381,15667,41.8797877089,-87.686112808,Western Ave & Monroe St
382,15668,41.87474885079,-87.6864452757,Western Ave & Congress Pkwy
383,15669,41.874293,-87.667284,Ashland Ave & Harrison St
384,15591,41.80183164049,-87.645213904,Halsted St & 51st St
385,15592,41.794982,-87.633124,Princeton Ave & Garfield Blvd
386,15593,41.79292964599,-87.6449900565,Halsted St & 56th St
388,15595,41.77938114228,-87.6446208145,Halsted St & 63rd St
390,15596,41.78007963264,-87.6297463052,Wentworth Ave & 63rd St
391,15597,41.76906172032,-87.6446135779,Halsted St & 69th St
392,15598,41.76929308995,-87.6281959291,Perry Ave & 69th St
393,15599,41.76550800581,-87.616917925,Calumet Ave & 71st St
394,15551,41.870816,-87.631246,Clark St & 9th St (AMLI)
395,15499,41.75712006802,-87.5758393587,Jeffery Blvd & 76th St
396,15500,41.758768,-87.56644,Yates Blvd & 75th St
397,15501,41.75874583706,-87.5601147813,Saginaw Ave & Exchange Ave
398,15502,41.75787144829,-87.54938625,Rainbow Beach
399,15506,41.76218896038,-87.55927465,South Shore Dr & 74th St
400,15507,41.76571903697,-87.604959713,Cottage Grove Ave & 71st St
401,15443,41.842733,-87.635491,Shields Ave & 28th Pl
402,15444,41.838464,-87.635406,Shields Ave & 31st St
403,15445,41.83452988563,-87.6318229814,Wentworth Ave & 33rd St
405,15447,41.830777,-87.632504,Wentworth Ave & 35th St
406,15448,41.83127423549,-87.6087991946,Lake Park Ave & 35th St
407,15449,41.82301523798,-87.6265680185,State St & Pershing Rd
408,15450,41.819102,-87.643278,Union Ave & Root St
409,15451,41.81620767856,-87.6348193497,Shields Ave & 43rd St
410,15452,41.81665889302,-87.6194124619,Prairie Ave & 43rd St
411,15453,41.80813391481,-87.6456165545,Halsted St & 47th Pl
412,15454,41.80931770924,-87.633449288,Princeton Ave & 47th St
413,15455,41.81409271048,-87.5970051479,Woodlawn Ave & Lake Park Ave
414,15550,41.870257,-87.639474,Canal St & Taylor St
415,15470,41.80229465088,-87.6180535802,Calumet Ave & 51st St
416,15471,41.805772,-87.592464,Dorchester Ave & 49th St
417,15472,41.802406,-87.586924,Cornell Ave & Hyde Park Blvd
418,15473,41.79933626261,-87.6009581145,Ellis Ave & 53rd St
419,15474,41.79949429373,-87.5864498959,Lake Park Ave & 53rd St
420,15475,41.79430062054,-87.6014497734,Ellis Ave & 55th St
421,15476,41.79342945658,-87.6158532619,MLK Jr Dr & 56th St (*)
422,15477,41.79156801058,-87.6078521774,DuSable Museum
423,15478,41.791478,-87.599861,University Ave & 57th St
424,15479,41.79172820953,-87.583945009,Museum of Science and Industry
425,15480,41.78794281287,-87.5883151702,Harper Ave & 59th St
426,15481,41.78509714636,-87.6010727606,Ellis Ave & 60th St
427,15482,41.78059901484,-87.606112388,Cottage Grove Ave & 63rd St
428,15484,41.7804056457,-87.5914159893,Dorchester Ave & 63rd St
429,15485,41.77372095205,-87.60563486,Cottage Grove Ave & 67th St
430,15486,41.78008063659,-87.6159428567,MLK Jr Dr & 63rd St
431,15487,41.78414169317,-87.6133078304,Eberhart Ave & 61st St
432,15563,42.009074,-87.67419,Clark St & Lunt Ave
433,15680,41.87359967462,-87.7048707493,Kedzie Ave & Harrison St
434,15681,41.86650148316,-87.68469707,Ogden Ave & Roosevelt Rd
435,15682,41.86649278172,-87.7064961757,Kedzie Ave & Roosevelt Rd
436,15683,41.866624,-87.694521,Fairfield Ave & Roosevelt Rd
437,15684,41.861894,-87.693511,Washtenaw Ave & Ogden Ave (*)
438,15685,41.85420431327,-87.7154058381,Central Park Ave & Ogden Ave
439,15686,41.85353363213,-87.7050730318,Kedzie Ave & 21st St
440,15687,41.8498819465,-87.7170003853,Lawndale Ave & 23rd St
441,15688,41.84819094491,-87.7054137458,Kedzie Ave & 24th St
442,15689,41.84910969176,-87.6951398068,California Ave & 23rd Pl
443,15690,41.84456684891,-87.7159103081,Millard Ave & 26th St
444,15691,41.84447501366,-87.7020130128,Albany Ave & 26th St
445,15692,41.84404003127,-87.6952959227,California Ave & 26th St
446,15693,41.84151770807,-87.6851314409,Western Ave & 28th St
447,15564,42.00797192287,-87.6655023944,Glenwood Ave & Morse Ave
448,15565,42.00454962194,-87.6806661451,Warren Park East
449,15566,42.00445062934,-87.6724024047,Clark St & Columbia Ave
450,15567,42.001785,-87.688829,Warren Park West
451,15568,42.00104377979,-87.6611982433,Sheridan Rd & Loyola Ave
452,15569,41.99416136902,-87.689438282,Western Ave & Granville Ave
453,15570,41.99925182186,-87.6713773393,Clark St & Schreiber Ave
454,15571,41.9947796884,-87.6602845349,Broadway & Granville Ave
455,15572,41.99023602867,-87.6933696402,Maplewood Ave & Peterson Ave
456,15573,41.991178,-87.683593,2112 W Peterson Ave
457,15574,41.99089374974,-87.6695833982,Clark St & Elmdale Ave
458,15575,41.98974251144,-87.6601406209,Broadway & Thorndale Ave
459,15576,41.98403669612,-87.6523104689,Lakefront Trail & Bryn Mawr Ave
460,15577,41.983593,-87.669154,Clark St & Bryn Mawr Ave
461,15578,41.9840446107,-87.6602738295,Broadway & Ridge Ave
462,15579,41.97977021745,-87.6758147283,Ravenswood Ave & Balmoral Ave
463,15580,41.9779966544,-87.6680471047,Clark St & Berwyn Ave
464,15581,41.97561480459,-87.6794590387,Damen Ave & Foster Ave
465,15582,41.9716,-87.650154,Marine Dr & Ainslie St
466,15583,42.01213227742,-87.6829126443,Ridge Blvd & Touhy Ave
467,15584,42.0085943972,-87.6904922389,Western Ave & Lunt Ave
468,15585,41.98366470886,-87.6964225611,Budlong Woods Library
469,15611,41.98039423475,-87.7161149615,St. Louis Ave & Balmoral Ave
470,15612,41.975672,-87.709261,Kedzie Ave & Foster Ave
471,15613,41.97563272521,-87.7014194389,Francisco Ave & Foster Ave
472,15614,41.97491129677,-87.6925025594,Lincoln Ave & Winona St
474,15615,41.96835449363,-87.7118306675,Christiana Ave & Lawrence Ave
475,15616,41.968987,-87.696027,Washtenaw Ave & Lawrence Ave
476,15617,41.96668636205,-87.7080519806,Kedzie Ave & Leland Ave
477,15618,41.96631752876,-87.7010826773,Manor Ave & Leland Ave
478,15619,41.96590013976,-87.6936384935,Rockwell St & Eastwood Ave
479,15620,41.96115407569,-87.7165690733,Drake Ave & Montrose Ave
480,15621,41.961041,-87.705866,Albany Ave & Montrose Ave
481,15622,41.961068,-87.695439,California Ave & Montrose Ave
482,15623,41.96152593287,-87.6911650414,Campbell Ave & Montrose Ave
483,15624,41.953393,-87.732002,Avondale Ave & Irving Park Rd
484,15625,41.95400483876,-87.7191281797,Monticello Ave & Irving Park Rd
485,15626,41.95358617895,-87.7093107999,Sawyer Ave & Irving Park Rd
486,15627,41.95434085219,-87.6860796243,Oakley Ave & Irving Park Rd
487,15628,41.95216219326,-87.698051113,California Ave & Byron St
488,15629,41.94563644092,-87.7277368138,Pulaski Rd & Eddy St
489,15630,41.947326,-87.717582,Drake Ave & Addison St
490,15631,41.94524356848,-87.7066499009,Troy St & Elston Ave
491,15632,41.9466358306,-87.694614758,Talman Ave & Addison St
492,15633,41.946655,-87.683359,Leavitt St & Addison St
493,15634,41.942916,-87.685801,Oakley Ave & Roscoe St
494,15635,41.98239708485,-87.7089225202,Kedzie Ave & Bryn Mawr Ave
495,15636,41.96110801623,-87.7289701012,Keystone Ave & Montrose Ave
496,15640,41.939408,-87.723574,Avers Ave & Belmont Ave
497,15641,41.939398,-87.711561,Kimball Ave & Belmont Ave
498,15642,41.93842879148,-87.698007756,California Ave & Fletcher St
499,15643,41.93058537138,-87.7237773635,Kosciuszko Park
500,15644,41.93533728263,-87.7168892935,Central Park Ave & Elbridge Ave
501,15645,41.93190196886,-87.7011951301,Richmond St & Diversey Ave
502,15646,41.92669,-87.697668,California Ave & Altgeld St
503,15647,41.924398819,-87.7154410355,Drake Ave & Fullerton Ave
504,15648,41.92463247165,-87.6893070063,Campbell Ave & Fullerton Ave
505,15649,41.92409085038,-87.6764600747,Winchester Ave & Elston Ave
506,15650,41.91718375155,-87.7103566522,Spaulding Ave & Armitage Ave
507,15651,41.91751339399,-87.7018089555,Humboldt Blvd & Armitage Ave
508,15652,41.90965687563,-87.7166319516,Central Park Ave & North Ave
509,15653,41.90976930169,-87.7052804871,Troy St & North Ave
510,15654,41.90270659438,-87.709219571,Spaulding Ave & Division St
511,15655,41.91402671273,-87.705126462,Albany Ave & Bloomingdale Ave
514,16801,42.019276,-87.68452,Ridge Blvd & Howard St
515,16802,42.019159,-87.673573,Paulina St & Howard St
517,16803,42.015963,-87.675005,Clark St & Jarvis Ave
518,16901,41.885502,-87.716866,Conservatory Dr & Lake St
519,16804,42.016977,-87.677725,Wolcott Ave & Fargo Ave
520,16805,42.015962,-87.66857,Greenview Ave & Jarvis Ave
522,16806,42.019537,-87.669563,Bosworth Ave & Howard St
523,16807,42.021019,-87.665086,Eastlake Ter & Rogers Ave
524,16921,41.894887,-87.774704,Austin Blvd & Chicago Ave
525,16809,42.012701,-87.666058,Glenwood Ave & Touhy Ave
526,16810,42.012342,-87.688243,Oakley Ave & Touhy Ave
527,16811,42.018901,-87.690048,Western Ave & Howard St
528,16902,41.885409,-87.726491,Pulaski Rd & Lake St
529,16903,41.886841,-87.745261,Cicero Ave & Lake St
530,16904,41.887832,-87.755527,Laramie Ave & Kinzie St
531,16905,41.887664,-87.765469,Central Ave & Lake St
532,16906,41.887919,-87.774446,Austin Blvd & Lake St
533,16907,41.875679,-87.71547,Central Park Blvd & 5th Ave
534,16908,41.880827,-87.726279,Pulaski Rd & Madison St
535,16909,41.874325,-87.725704,Pulaski Rd & Congress Pkwy
536,16910,41.885928,-87.73541,Kostner Ave & Lake St
537,16911,41.880708,-87.741018,Kenton Ave & Madison St
538,16912,41.872131,-87.746619,Cicero Ave & Flournoy St
539,16913,41.877613,-87.745405,Cicero Ave & Quincy St
540,16914,41.880207,-87.755337,Laramie Ave & Madison St
541,16915,41.872993,-87.764499,Central Ave & Harrison St
542,16916,41.880121,-87.763238,Central Ave & Madison St
543,16917,41.875806,-87.755285,Laramie Ave & Gladys Ave
544,16918,41.880281,-87.774453,Austin Blvd & Madison St
545,16919,41.877917,-87.735737,Kostner Ave & Adams St
546,16931,41.823192,-87.676597,Damen Ave & Pershing Rd
547,16932,41.823465,-87.665577,Ashland Ave & Pershing Rd
548,16933,41.823613,-87.650931,Morgan St & Pershing Rd
549,16934,41.813996,-87.666589,Marshfield Ave & 44th St
550,16920,41.894958,-87.764902,Central Ave & Chicago Ave
551,16936,41.808227,-87.67718,Hoyne Ave & 47th St
552,16937,41.80887,-87.66454,Ashland Ave & McDowell Ave
553,16938,41.80839,-87.656526,Elizabeth St & 47th St
554,16939,41.800908,-87.674684,Damen Ave & 51st St
555,16940,41.803023,-87.664699,Ashland Ave & 50th St
556,16941,41.799659,-87.657195,Throop St & 52nd St
557,16942,41.794087,-87.675478,Seeley Ave & Garfield Blvd
558,16943,41.792822,-87.664429,Ashland Ave & Garfield Blvd
559,16944,41.794228,-87.655073,Racine Ave & Garfield Blvd
560,16945,41.786833,-87.666215,Marshfield Ave & 59th St
561,16946,41.78602,-87.674167,Damen Ave & 59th St
562,16947,41.783189,-87.654372,Racine Ave & 61st St
563,16948,41.779374,-87.664843,Ashland Ave & 63rd St
564,16949,41.775393,-87.654308,Racine Ave & 65th St
565,16950,41.774074,-87.663815,Ashland Ave & 66th St
566,16951,41.768726,-87.664069,Ashland Ave & 69th St
567,16952,41.768938,-87.652934,May St & 69th St
568,16953,41.763462,-87.637297,Normal Ave & 72nd St
569,16961,41.75916,-87.595751,Woodlawn Ave & 75th St
570,16962,41.758308,-87.606685,Evans Ave & 75th St
571,16963,41.758361,-87.614138,Vernon Ave & 75th St
572,16964,41.756971,-87.624621,State St & 76th St
573,16965,41.750794,-87.624424,State St & 79th St
574,16966,41.751345,-87.612568,Eberhart (Vernon) Ave & 79th St
575,16967,41.753174,-87.605026,Cottage Grove Ave & 78th St
576,16968,41.751294,-87.597552,Greenwood Ave & 79th St
577,16969,41.751173,-87.585337,Stony Island Ave & South Chicago Ave
578,16970,41.751785,-87.578496,Bennett Ave & 79th St
579,16971,41.75182,-87.565211,Phillips Ave & 79th St
580,16972,41.751731,-87.552812,Exchange Ave & 79th St
583,16975,41.746559,-87.586005,Stony Island Ave & 82nd St
584,16976,41.744123,-87.599034,Ellis Ave & 83rd St
585,16977,41.744053,-87.604786,Cottage Grove Ave & 83rd St
586,16978,41.743116,-87.6148,MLK Jr Dr & 83rd St
587,16979,41.743316,-87.622849,Wabash Ave & 83rd St
588,16980,41.743921,-87.575225,South Chicago Ave & 83rd St
589,16991,41.954468,-87.749594,Milwaukee Ave & Cuyler Ave
590,16992,41.953733,-87.740569,Kilbourn Ave & Irving Park Rd
591,16994,41.948818,-87.74002,Kilbourn Ave & Milwaukee Ave
592,16001,41.960631,-87.745359,Knox Ave & Montrose Ave
593,16005,41.787539,-87.644874,Halsted St & 59th St
594,16008,41.805661,-87.683392,Western Blvd & 48th Pl
595,16009,41.736646,-87.622634,Wabash Ave & 87th St
596,E001,42.048214,-87.683485,Benson Ave & Church St
597,E002,42.032562,-87.679101,Chicago Ave & Washington St
598,E003,42.025784,-87.684107,Elmwood Ave & Austin St
599,E004,42.039742,-87.699413,Valli Produce - Evanston Plaza
600,E005,42.048308,-87.698224,Dodge Ave & Church St
601,E006,42.063598,-87.69873,Central St Metra
602,E007,42.064313,-87.686152,Central St & Girard Ave
603,E008,42.050491,-87.677821,Chicago Ave & Sheridan Rd
604,E009,42.058239,-87.677432,Sheridan Rd & Noyes St (NU)
605,E010,42.052939,-87.673447,University Library (NU)
619,16010,41.924361,-87.727752,Keystone Ave & Fullerton Ave
620,16011,41.898203,-87.637536,Orleans St & Chestnut St (NEXT Apts)
622,17660,41.900363,-87.696704,California Ave & Cortez St
623,17541,41.872773,-87.623981,Michigan Ave & 8th St
624,17013,41.876268,-87.629155,Dearborn St & Van Buren St (*)
625,E011,42.041691,-87.680687,Chicago Ave & Dempster St
626,17043,41.867491,-87.63219,Delano Ct & Roosevelt Rd
